{
  "lastUpdate": "2026-04-02T00:58:17.143915",
  "source": "INEA - Instituto Estadual do Ambiente",
  "bulletin": "Boletim de Balneabilidade das Praias",
  "beaches": [
    {
      "id": 1,
      "name": "Adão",
      "lat": -22.9492,
      "lng": -43.0319,
      "status": "proper",
      "city": "Niterói",
      "zone": "Niterói",
      "lastUpdate": "2026-03-30T00:00:00"
    },
    {
      "id": 2,
      "name": "Arpoador",
      "lat": -22.9875,
      "lng": -43.1909,
      "status": "proper",
      "city": "Rio de Janeiro",
      "zone": "Zona Sul",
      "lastUpdate": "2026-03-30T00:00:00"
    },
    {
      "id": 3,
      "name": "Barra da Tijuca",
      "lat": -23.0125,
      "lng": -43.3642,
      "status": "improper",
      "city": "Rio de Janeiro",
      "zone": "Zona Oeste",
      "lastUpdate": "2026-03-30T00:00:00"
    },
    {
      "id": 4,
      "name": "Barra da Tijuca II",
      "lat": -23.0056,
      "lng": -43.3319,
      "status": "improper",
      "city": "Rio de Janeiro",
      "zone": "Zona Sul",
      "lastUpdate": "2026-03-30T00:00:00"
    },
    {
      "id": 5,
      "name": "Barra de Guaratiba",
      "lat": -23.0736,
      "lng": -43.5681,
      "status": "proper",
      "city": "Rio de Janeiro",
      "zone": "Zona Oeste",
      "lastUpdate": "2026-03-30T00:00:00"
    },
    {
      "id": 6,
      "name": "Boa Viagem",
      "lat": -22.8967,
      "lng": -43.1258,
      "status": "proper",
      "city": "Niterói",
      "zone": "Niterói",
      "lastUpdate": "2026-03-30T00:00:00"
    },
    {
      "id": 7,
      "name": "Botafogo",
      "lat": -22.9475,
      "lng": -43.1764,
      "status": "improper",
      "city": "Rio de Janeiro",
      "zone": "Zona Sul",
      "lastUpdate": "2026-03-30T00:00:00"
    },
    {
      "id": 8,
      "name": "Camboinhas",
      "lat": -22.9517,
      "lng": -43.0231,
      "status": "improper",
      "city": "Niterói",
      "zone": "Niterói",
      "lastUpdate": "2026-03-30T00:00:00"
    },
    {
      "id": 9,
      "name": "Charitas",
      "lat": -22.925,
      "lng": -43.0931,
      "status": "proper",
      "city": "Niterói",
      "zone": "Niterói",
      "lastUpdate": "2026-03-30T00:00:00"
    },
    {
      "id": 10,
      "name": "Copacabana",
      "lat": -22.9711,
      "lng": -43.1822,
      "status": "improper",
      "city": "Rio de Janeiro",
      "zone": "Zona Sul",
      "lastUpdate": "2026-03-30T00:00:00"
    },
    {
      "id": 11,
      "name": "Diabo",
      "lat": -22.9869,
      "lng": -43.1967,
      "status": "proper",
      "city": "Rio de Janeiro",
      "zone": "Zona Sul",
      "lastUpdate": "2026-03-30T00:00:00"
    },
    {
      "id": 12,
      "name": "Eva",
      "lat": -22.95,
      "lng": -43.0333,
      "status": "improper",
      "city": "Niterói",
      "zone": "Niterói",
      "lastUpdate": "2026-03-30T00:00:00"
    },
    {
      "id": 13,
      "name": "Flamengo",
      "lat": -22.9344,
      "lng": -43.1725,
      "status": "improper",
      "city": "Rio de Janeiro",
      "zone": "Zona Sul",
      "lastUpdate": "2026-03-30T00:00:00"
    },
    {
      "id": 14,
      "name": "Flechas",
      "lat": -22.8956,
      "lng": -43.1186,
      "status": "improper",
      "city": "Niterói",
      "zone": "Niterói",
      "lastUpdate": "2026-03-30T00:00:00"
    },
    {
      "id": 15,
      "name": "Glória",
      "lat": -22.9211,
      "lng": -43.1719,
      "status": "improper",
      "city": "Rio de Janeiro",
      "zone": "Zona Sul",
      "lastUpdate": "2026-03-30T00:00:00"
    },
    {
      "id": 16,
      "name": "Gragoatá",
      "lat": -22.9006,
      "lng": -43.1286,
      "status": "proper",
      "city": "Niterói",
      "zone": "Niterói",
      "lastUpdate": "2026-03-30T00:00:00"
    },
    {
      "id": 17,
      "name": "Grumari",
      "lat": -23.0453,
      "lng": -43.5247,
      "status": "improper",
      "city": "Rio de Janeiro",
      "zone": "Zona Oeste",
      "lastUpdate": "2026-03-30T00:00:00"
    },
    {
      "id": 18,
      "name": "Icaraí",
      "lat": -22.9058,
      "lng": -43.105,
      "status": "improper",
      "city": "Niterói",
      "zone": "Niterói",
      "lastUpdate": "2026-03-30T00:00:00"
    },
    {
      "id": 19,
      "name": "Ipanema",
      "lat": -22.9838,
      "lng": -43.2044,
      "status": "improper",
      "city": "Rio de Janeiro",
      "zone": "Zona Sul",
      "lastUpdate": "2026-03-30T00:00:00"
    },
    {
      "id": 20,
      "name": "Itacoatiara",
      "lat": -22.9811,
      "lng": -43.0306,
      "status": "improper",
      "city": "Niterói",
      "zone": "Niterói",
      "lastUpdate": "2026-03-30T00:00:00"
    },
    {
      "id": 21,
      "name": "Itaipu",
      "lat": -22.9658,
      "lng": -43.0289,
      "status": "improper",
      "city": "Niterói",
      "zone": "Niterói",
      "lastUpdate": "2026-03-30T00:00:00"
    },
    {
      "id": 22,
      "name": "Joatinga",
      "lat": -23.0089,
      "lng": -43.2847,
      "status": "proper",
      "city": "Rio de Janeiro",
      "zone": "Zona Sul",
      "lastUpdate": "2026-03-30T00:00:00"
    },
    {
      "id": 23,
      "name": "Jurujuba",
      "lat": -22.9358,
      "lng": -43.085,
      "status": "proper",
      "city": "Niterói",
      "zone": "Niterói",
      "lastUpdate": "2026-03-30T00:00:00"
    },
    {
      "id": 24,
      "name": "Leblon",
      "lat": -22.9844,
      "lng": -43.2253,
      "status": "improper",
      "city": "Rio de Janeiro",
      "zone": "Zona Sul",
      "lastUpdate": "2026-03-30T00:00:00"
    },
    {
      "id": 25,
      "name": "Leme",
      "lat": -22.9644,
      "lng": -43.1686,
      "status": "proper",
      "city": "Rio de Janeiro",
      "zone": "Zona Sul",
      "lastUpdate": "2026-03-30T00:00:00"
    },
    {
      "id": 26,
      "name": "Pepino",
      "lat": -23.0031,
      "lng": -43.2758,
      "status": "proper",
      "city": "Rio de Janeiro",
      "zone": "Zona Sul",
      "lastUpdate": "2026-03-30T00:00:00"
    },
    {
      "id": 27,
      "name": "Piratininga",
      "lat": -22.955,
      "lng": -43.0733,
      "status": "improper",
      "city": "Niterói",
      "zone": "Niterói",
      "lastUpdate": "2026-03-30T00:00:00"
    },
    {
      "id": 28,
      "name": "Pontal de Sernambetiba",
      "lat": -23.0158,
      "lng": -43.4897,
      "status": "improper",
      "city": "Rio de Janeiro",
      "zone": "Zona Oeste",
      "lastUpdate": "2026-03-30T00:00:00"
    },
    {
      "id": 29,
      "name": "Prainha",
      "lat": -23.0392,
      "lng": -43.5089,
      "status": "proper",
      "city": "Rio de Janeiro",
      "zone": "Zona Oeste",
      "lastUpdate": "2026-03-30T00:00:00"
    },
    {
      "id": 30,
      "name": "Recreio",
      "lat": -23.0275,
      "lng": -43.4647,
      "status": "improper",
      "city": "Rio de Janeiro",
      "zone": "Zona Oeste",
      "lastUpdate": "2026-03-30T00:00:00"
    },
    {
      "id": 31,
      "name": "Recreio/Reserva",
      "lat": -23.0183,
      "lng": -43.4064,
      "status": "improper",
      "city": "Rio de Janeiro",
      "zone": "Zona Oeste",
      "lastUpdate": "2026-03-30T00:00:00"
    },
    {
      "id": 32,
      "name": "Sossego",
      "lat": -22.9622,
      "lng": -43.0383,
      "status": "proper",
      "city": "Niterói",
      "zone": "Niterói",
      "lastUpdate": "2026-03-30T00:00:00"
    },
    {
      "id": 33,
      "name": "São Conrado",
      "lat": -22.9997,
      "lng": -43.2689,
      "status": "improper",
      "city": "Rio de Janeiro",
      "zone": "Zona Sul",
      "lastUpdate": "2026-03-30T00:00:00"
    },
    {
      "id": 34,
      "name": "São Francisco",
      "lat": -22.9144,
      "lng": -43.1,
      "status": "improper",
      "city": "Niterói",
      "zone": "Niterói",
      "lastUpdate": "2026-03-30T00:00:00"
    },
    {
      "id": 35,
      "name": "Urca",
      "lat": -22.9528,
      "lng": -43.1639,
      "status": "improper",
      "city": "Rio de Janeiro",
      "zone": "Zona Sul",
      "lastUpdate": "2026-03-30T00:00:00"
    },
    {
      "id": 36,
      "name": "Vermelha",
      "lat": -22.9525,
      "lng": -43.1675,
      "status": "proper",
      "city": "Rio de Janeiro",
      "zone": "Zona Sul",
      "lastUpdate": "2026-03-30T00:00:00"
    },
    {
      "id": 37,
      "name": "Vidigal",
      "lat": -22.9944,
      "lng": -43.2347,
      "status": "proper",
      "city": "Rio de Janeiro",
      "zone": "Zona Sul",
      "lastUpdate": "2026-03-30T00:00:00"
    }
  ]
}